{
  "audit_date": "2026-03-28",
  "total_checked": 30,
  "ok_count": 26,
  "mismatch_count": 4,
  "geocode_failed_count": 0,
  "threshold_m": 500,
  "results": [
    {
      "id": 2867,
      "name": "La Paz",
      "address": "Heußweg 49, Hamburg",
      "db_lat": 53.5775121,
      "db_lon": 9.9519586,
      "nominatim_lat": 53.5775121,
      "nominatim_lon": 9.9519586,
      "nominatim_display": "La Paz, 49, Heußweg, Eimsbüttel, Hamburg, 20255, Deutschland",
      "distance_m": 0.0,
      "mismatch": false,
      "status": "OK"
    },
    {
      "id": 8373,
      "name": "Braaker Mühle",
      "address": "Braaker Bogen 33, Braak",
      "db_lat": 53.61806,
      "db_lon": 10.239644,
      "nominatim_lat": 53.6180562,
      "nominatim_lon": 10.239686,
      "nominatim_display": "Braaker Mühle, 33, Braaker Bogen, Gewerbegebiet Stapelfeld/ Braak, Braak, Siek, Kreis Stormarn, Schleswig-Holstein, 22145, Deutschland",
      "distance_m": 2.8,
      "mismatch": false,
      "status": "OK"
    },
    {
      "id": 8006,
      "name": "A Modo Nostro",
      "address": "Eichengrund, 22589 Hamburg (Blankenese)",
      "db_lat": 53.5716804,
      "db_lon": 9.801133,
      "nominatim_lat": 53.5712747,
      "nominatim_lon": 9.8032977,
      "nominatim_display": "Eichengrund, Blankenese, Altona, Hamburg, 22589, Deutschland",
      "distance_m": 149.9,
      "mismatch": false,
      "status": "OK"
    },
    {
      "id": 3,
      "name": "Elbschlosskeller",
      "address": "Hamburger Berg 38, Hamburg",
      "db_lat": 53.5498573,
      "db_lon": 9.961507,
      "nominatim_lat": 53.5498573,
      "nominatim_lon": 9.961507,
      "nominatim_display": "Elbschlosskeller, 38, Hamburger Berg, St. Pauli, Hamburg-Mitte, Hamburg, 20359, Deutschland",
      "distance_m": 0.0,
      "mismatch": false,
      "status": "OK"
    },
    {
      "id": 7106,
      "name": "Relax Café",
      "address": "Wendenstraße 375",
      "db_lat": 53.5510729,
      "db_lon": 10.0456882,
      "nominatim_lat": 53.5510352,
      "nominatim_lon": 10.0458179,
      "nominatim_display": "375, Wendenstraße, Hamm, Hamburg-Mitte, Hamburg, 20537, Deutschland",
      "distance_m": 9.5,
      "mismatch": false,
      "status": "OK"
    },
    {
      "id": 1785,
      "name": "Panther cafébarkitchen",
      "address": "Marktstraße 3, Hamburg",
      "db_lat": 53.5583089,
      "db_lon": 9.974516,
      "nominatim_lat": 53.558344,
      "nominatim_lon": 9.9745116,
      "nominatim_display": "3, Marktstraße, Karolinenviertel, St. Pauli, Hamburg-Mitte, Hamburg, 20357, Deutschland",
      "distance_m": 3.9,
      "mismatch": false,
      "status": "OK"
    },
    {
      "id": 6286,
      "name": "Konfuzius",
      "address": "Langenhorner Chaussee 660, Hamburg",
      "db_lat": 53.6778117,
      "db_lon": 10.0011212,
      "nominatim_lat": 53.6778199,
      "nominatim_lon": 10.0013387,
      "nominatim_display": "660, Langenhorner Chaussee, Langenhorn, Hamburg-Nord, Hamburg, 22419, Deutschland",
      "distance_m": 14.4,
      "mismatch": false,
      "status": "OK"
    },
    {
      "id": 7189,
      "name": "Café Rennkoppel",
      "address": "An der Rennkoppel 3, 21075 Hamburg (Heimfeld)",
      "db_lat": 53.4649811,
      "db_lon": 9.9585032,
      "nominatim_lat": 53.4650703,
      "nominatim_lon": 9.9584824,
      "nominatim_display": "Appartementhaus Flex-Appart, 3, An der Rennkoppel, Heimfeld, Harburg, Hamburg, 21075, Deutschland",
      "distance_m": 10.0,
      "mismatch": false,
      "status": "OK"
    },
    {
      "id": 3414,
      "name": "Käthners 23",
      "address": "Käthnerort 23, Hamburg",
      "db_lat": 53.5817462,
      "db_lon": 10.0375198,
      "nominatim_lat": 53.581685,
      "nominatim_lon": 10.0375177,
      "nominatim_display": "23, Käthnerort, Barmbek-Süd, Hamburg-Nord, Hamburg, 22083, Deutschland",
      "distance_m": 6.8,
      "mismatch": false,
      "status": "OK"
    },
    {
      "id": 6439,
      "name": "Tavernaki \"i\" Akropolis",
      "address": "Am Felde 51",
      "db_lat": 53.4230101,
      "db_lon": 10.0297071,
      "nominatim_lat": 52.3279975,
      "nominatim_lon": 7.2358972,
      "nominatim_display": "51, Am Felde, Schüttorf, Samtgemeinde Schüttorf, Landkreis Grafschaft Bentheim, Niedersachsen, 48465, Deutschland",
      "distance_m": 223538.5,
      "mismatch": true,
      "status": "MISMATCH"
    },
    {
      "id": 2280,
      "name": "Saray Köz",
      "address": "Kreuzweg 12, 20099 Hamburg (St. Georg)",
      "db_lat": 53.5538321,
      "db_lon": 10.0136392,
      "nominatim_lat": 53.5537037,
      "nominatim_lon": 10.013568,
      "nominatim_display": "12, Kreuzweg, St. Georg, Hamburg-Mitte, Hamburg, 20099, Deutschland",
      "distance_m": 15.0,
      "mismatch": false,
      "status": "OK"
    },
    {
      "id": 6157,
      "name": "Restaurant Finkenwerder Elbblick",
      "address": "Focksweg 42, Hamburg",
      "db_lat": 53.5387533,
      "db_lon": 9.8736721,
      "nominatim_lat": 53.5387165,
      "nominatim_lon": 9.8737527,
      "nominatim_display": "42, Focksweg, Finkenwerder, Hamburg-Mitte, Hamburg, 21129, Deutschland",
      "distance_m": 6.7,
      "mismatch": false,
      "status": "OK"
    },
    {
      "id": 2276,
      "name": "blanco",
      "address": "Lange Reihe 87, 20099 Hamburg (St. Georg)",
      "db_lat": 53.5584628,
      "db_lon": 10.0124399,
      "nominatim_lat": 53.5584837,
      "nominatim_lon": 10.0123868,
      "nominatim_display": "87, Lange Reihe, St. Georg, Hamburg-Mitte, Hamburg, 20099, Deutschland",
      "distance_m": 4.2,
      "mismatch": false,
      "status": "OK"
    },
    {
      "id": 8671,
      "name": "Croque & Crêpes Bargteheide",
      "address": "Alte Landstraße 38, Bargteheide",
      "db_lat": 53.7305533,
      "db_lon": 10.2569392,
      "nominatim_lat": 53.7304449,
      "nominatim_lon": 10.2571129,
      "nominatim_display": "38, Alte Landstraße, Bargteheide, Kreis Stormarn, Schleswig-Holstein, 22941, Deutschland",
      "distance_m": 16.6,
      "mismatch": false,
      "status": "OK"
    },
    {
      "id": 5944,
      "name": "Musti",
      "address": "Luruper Hauptstraße, 22547 Hamburg (Lurup)",
      "db_lat": 53.5980635,
      "db_lon": 9.8614674,
      "nominatim_lat": 53.5902108,
      "nominatim_lon": 9.8743208,
      "nominatim_display": "Luruper Hauptstraße, Lurup, Altona, Hamburg, 22547, Deutschland",
      "distance_m": 1217.4,
      "mismatch": true,
      "status": "MISMATCH"
    },
    {
      "id": 6125,
      "name": "Chili Club",
      "address": "Am Sandtorkai 54",
      "db_lat": 53.5428684,
      "db_lon": 9.9929301,
      "nominatim_lat": 53.5430119,
      "nominatim_lon": 9.9929007,
      "nominatim_display": "54, Am Sandtorkai, Quartier Am Sandtorpark/Grasbrook, HafenCity, Hamburg-Mitte, Hamburg, 20457, Deutschland",
      "distance_m": 16.1,
      "mismatch": false,
      "status": "OK"
    },
    {
      "id": 2184,
      "name": "San",
      "address": "Koppel 76, 20099 Hamburg (St. Georg)",
      "db_lat": 53.558786,
      "db_lon": 10.0116047,
      "nominatim_lat": 53.5587639,
      "nominatim_lon": 10.011656,
      "nominatim_display": "76, Koppel, St. Georg, Hamburg-Mitte, Hamburg, 20099, Deutschland",
      "distance_m": 4.2,
      "mismatch": false,
      "status": "OK"
    },
    {
      "id": 196,
      "name": "Harlin",
      "address": "Neuer Jungfernstieg 9-14, Hamburg",
      "db_lat": 53.5557185,
      "db_lon": 9.9916858,
      "nominatim_lat": 53.5557185,
      "nominatim_lon": 9.9916858,
      "nominatim_display": "Haerlin, 9-14, Neuer Jungfernstieg, Neustadt, Hamburg-Mitte, Hamburg, 20354, Deutschland",
      "distance_m": 0.0,
      "mismatch": false,
      "status": "OK"
    },
    {
      "id": 6143,
      "name": "Mansaaf",
      "address": "Eppendorfer Weg 208, Hamburg",
      "db_lat": 53.5820867,
      "db_lon": 9.972862,
      "nominatim_lat": 53.5820733,
      "nominatim_lon": 9.9728815,
      "nominatim_display": "208, Eppendorfer Weg, Hoheluft-West, Hoheluft-Ost, Hamburg-Nord, Hamburg, 20251, Deutschland",
      "distance_m": 2.0,
      "mismatch": false,
      "status": "OK"
    },
    {
      "id": 116,
      "name": "The Dubliner",
      "address": "Lange Reihe 71, St. Georg",
      "db_lat": 53.5580001,
      "db_lon": 10.0117042,
      "nominatim_lat": 53.5580001,
      "nominatim_lon": 10.0117042,
      "nominatim_display": "71, Lange Reihe, St. Georg, Hamburg-Mitte, Hamburg, 20099, Deutschland",
      "distance_m": 0.0,
      "mismatch": false,
      "status": "OK"
    },
    {
      "id": 6329,
      "name": "Rondell",
      "address": "Schloßstraße 42, 22041 Hamburg (Marienthal)",
      "db_lat": 53.5713863,
      "db_lon": 10.0690131,
      "nominatim_lat": 53.571426,
      "nominatim_lon": 10.0690192,
      "nominatim_display": "42, Schloßstraße, Marienthal, Wandsbek, Hamburg, 22041, Deutschland",
      "distance_m": 4.4,
      "mismatch": false,
      "status": "OK"
    },
    {
      "id": 8183,
      "name": "Dorfkrug",
      "address": "Im Alten Dorfe 44, Hamburg",
      "db_lat": 53.6495594,
      "db_lon": 10.1679945,
      "nominatim_lat": 53.6495594,
      "nominatim_lon": 10.1679945,
      "nominatim_display": "Dorfkrug, 44, Im Alten Dorfe, Volksdorf, Wandsbek, Hamburg, 22359, Deutschland",
      "distance_m": 0.0,
      "mismatch": false,
      "status": "OK"
    },
    {
      "id": 1855,
      "name": "Pizzamacherei",
      "address": "Eimsbütteler Chaussee 84, Hamburg",
      "db_lat": 53.5685921,
      "db_lon": 9.9559364,
      "nominatim_lat": 53.5686525,
      "nominatim_lon": 9.9561175,
      "nominatim_display": "84, Eimsbütteler Chaussee, Eimsbüttel, Hamburg, 20259, Deutschland",
      "distance_m": 13.7,
      "mismatch": false,
      "status": "OK"
    },
    {
      "id": 6311,
      "name": "L'espresso",
      "address": "Lokstedter Weg 86, 20251 Hamburg (Eppendorf)",
      "db_lat": 53.5964903,
      "db_lon": 9.9821141,
      "nominatim_lat": 53.5965117,
      "nominatim_lon": 9.9821221,
      "nominatim_display": "86, Lokstedter Weg, Eppendorf, Hamburg-Nord, Hamburg, 20251, Deutschland",
      "distance_m": 2.4,
      "mismatch": false,
      "status": "OK"
    },
    {
      "id": 2886,
      "name": "Curcuma",
      "address": "Eimsbüttel",
      "db_lat": 53.5780438,
      "db_lon": 9.9427501,
      "nominatim_lat": 53.5729372,
      "nominatim_lon": 9.9582607,
      "nominatim_display": "Eimsbüttel, Hamburg, Deutschland",
      "distance_m": 1171.0,
      "mismatch": true,
      "status": "MISMATCH"
    },
    {
      "id": 6859,
      "name": "friends",
      "address": "Habichtstraße 96, 22305 Hamburg (Barmbek-Nord)",
      "db_lat": 53.593376,
      "db_lon": 10.0525234,
      "nominatim_lat": 53.593321,
      "nominatim_lon": 10.052417,
      "nominatim_display": "96, Habichtstraße, Barmbek-Nord, Hamburg-Nord, Hamburg, 22305, Deutschland",
      "distance_m": 9.3,
      "mismatch": false,
      "status": "OK"
    },
    {
      "id": 3151,
      "name": "Cafe Vivet",
      "address": "Neustadt/Innenstadt",
      "db_lat": 53.5518174,
      "db_lon": 10.0027038,
      "nominatim_lat": 54.6057529,
      "nominatim_lon": 18.2296473,
      "nominatim_display": "Wejherowo, Plac Marszałka Józefa Piłsudskiego, Osiedle 1000-lecia Państwa Polskiego, Dzielnica Zachodnia, Wejherowo, powiat wejherowski, województwo pomorskie, 84-200, Polska",
      "distance_m": 548985.5,
      "mismatch": true,
      "status": "MISMATCH"
    },
    {
      "id": 7177,
      "name": "Löschecke",
      "address": "Marienstraße 82, Hamburg",
      "db_lat": 53.4569807,
      "db_lon": 9.9684565,
      "nominatim_lat": 53.4569804,
      "nominatim_lon": 9.9683619,
      "nominatim_display": "82, Marienstraße, Eißendorf, Harburg, Hamburg, 21073, Deutschland",
      "distance_m": 6.3,
      "mismatch": false,
      "status": "OK"
    },
    {
      "id": 8371,
      "name": "Meyr's Bistro",
      "address": "Glinder Weg 25, Reinbek",
      "db_lat": 53.5151686,
      "db_lon": 10.2277302,
      "nominatim_lat": 53.5151852,
      "nominatim_lon": 10.227577,
      "nominatim_display": "25, Glinder Weg, Reinbek, Kreis Stormarn, Schleswig-Holstein, 21465, Deutschland",
      "distance_m": 10.3,
      "mismatch": false,
      "status": "OK"
    },
    {
      "id": 6244,
      "name": "Annam",
      "address": "Litzowstieg, 22041 Hamburg (Wandsbek)",
      "db_lat": 53.5738043,
      "db_lon": 10.0696706,
      "nominatim_lat": 53.5735256,
      "nominatim_lon": 10.0687129,
      "nominatim_display": "Litzowstieg, Wandsbek, Hamburg, 22041, Deutschland",
      "distance_m": 70.4,
      "mismatch": false,
      "status": "OK"
    }
  ]
}